[
{
      "key" : "Albania",
      "name" : "Albania",
      "latitude" : 41,
      "longitude" : 20
    },
{
      "key" : "Algeria",
      "name" : "Algeria",
      "latitude" : 28,
      "longitude" : 3
    },
{
      "key" : "American Samoa",
      "name" : "American Samoa",
      "latitude" : -14.3333,
      "longitude" : -170
    },
{
      "key" : "Andorra",
      "name" : "Andorra",
      "latitude" : 42.5,
      "longitude" : 1.6
    },
{
      "key" : "Angola",
      "name" : "Angola",
      "latitude" : -12.5,
      "longitude" : 18.5
    },
{
      "key" : "Anguilla",
      "name" : "Anguilla",
      "latitude" : 18.25,
      "longitude" : -63.1667
    },
{
      "key" : "Antarctica",
      "name" : "Antarctica",
      "latitude" : -90,
      "longitude" : 0
    },
{
      "key" : "Antigua and Barbuda",
      "name" : "Antigua and Barbuda",
      "latitude" : 17.05,
      "longitude" : -61.8
    },
{
      "key" : "Argentina",
      "name" : "Argentina",
      "latitude" : -34,
      "longitude" : -64
    },
{
      "key" : "Armenia",
      "name" : "Armenia",
      "latitude" : 40,
      "longitude" : 45
    },
{
      "key" : "Aruba",
      "name" : "Aruba",
      "latitude" : 12.5,
      "longitude" : -69.9667
    },
{
      "key" : "Australia",
      "name" : "Australia",
      "latitude" : -27,
      "longitude" : 133
    },
{
      "key" : "Austria",
      "name" : "Austria",
      "latitude" : 47.3333,
      "longitude" : 13.3333
    },
{
      "key" : "Azerbaijan",
      "name" : "Azerbaijan",
      "latitude" : 40.5,
      "longitude" : 47.5
    },
{
      "key" : "Bahamas",
      "name" : "Bahamas",
      "latitude" : 24.25,
      "longitude" : -76
    },
{
      "key" : "Bahrain",
      "name" : "Bahrain",
      "latitude" : 26,
      "longitude" : 50.55
    },
{
      "key" : "Bangladesh",
      "name" : "Bangladesh",
      "latitude" : 24,
      "longitude" : 90
    },
{
      "key" : "Barbados",
      "name" : "Barbados",
      "latitude" : 13.1667,
      "longitude" : -59.5333
    },
{
      "key" : "Belarus",
      "name" : "Belarus",
      "latitude" : 53,
      "longitude" : 28
    },
{
      "key" : "Belgium",
      "name" : "Belgium",
      "latitude" : 50.8333,
      "longitude" : 4
    },
{
      "key" : "Belize",
      "name" : "Belize",
      "latitude" : 17.25,
      "longitude" : -88.75
    },
{
      "key" : "Benin",
      "name" : "Benin",
      "latitude" : 9.5,
      "longitude" : 2.25
    },
{
      "key" : "Bermuda",
      "name" : "Bermuda",
      "latitude" : 32.3333,
      "longitude" : -64.75
    },
{
      "key" : "Bhutan",
      "name" : "Bhutan",
      "latitude" : 27.5,
      "longitude" : 90.5
    },
{
      "key" : "Bolivia, Plurinational State of",
      "name" : "Bolivia, Plurinational State of",
      "latitude" : -17,
      "longitude" : -65
    },
{
      "key" : "Bosnia and Herzegovina",
      "name" : "Bosnia and Herzegovina",
      "latitude" : 44,
      "longitude" : 18
    },
{
      "key" : "Botswana",
      "name" : "Botswana",
      "latitude" : -22,
      "longitude" : 24
    },
{
      "key" : "Bouvet Island",
      "name" : "Bouvet Island",
      "latitude" : -54.4333,
      "longitude" : 3.4
    },
{
      "key" : "Brazil",
      "name" : "Brazil",
      "latitude" : -10,
      "longitude" : -55
    },
{
      "key" : "British Indian Ocean Territory",
      "name" : "British Indian Ocean Territory",
      "latitude" : -6,
      "longitude" : 71.5
    },
{
      "key" : "Brunei Darussalam",
      "name" : "Brunei Darussalam",
      "latitude" : 4.5,
      "longitude" : 114.6667
    },
{
      "key" : "Bulgaria",
      "name" : "Bulgaria",
      "latitude" : 43,
      "longitude" : 25
    },
{
      "key" : "Burkina Faso",
      "name" : "Burkina Faso",
      "latitude" : 13,
      "longitude" : -2
    },
{
      "key" : "Burundi",
      "name" : "Burundi",
      "latitude" : -3.5,
      "longitude" : 30
    },
{
      "key" : "Cambodia",
      "name" : "Cambodia",
      "latitude" : 13,
      "longitude" : 105
    },
{
      "key" : "Cameroon",
      "name" : "Cameroon",
      "latitude" : 6,
      "longitude" : 12
    },
{
      "key" : "Canada",
      "name" : "Canada",
      "latitude" : 60,
      "longitude" : -95
    },
{
      "key" : "Cape Verde",
      "name" : "Cape Verde",
      "latitude" : 16,
      "longitude" : -24
    },
{
      "key" : "Cayman Islands",
      "name" : "Cayman Islands",
      "latitude" : 19.5,
      "longitude" : -80.5
    },
{
      "key" : "Central African Republic",
      "name" : "Central African Republic",
      "latitude" : 7,
      "longitude" : 21
    },
{
      "key" : "Chad",
      "name" : "Chad",
      "latitude" : 15,
      "longitude" : 19
    },
{
      "key" : "Chile",
      "name" : "Chile",
      "latitude" : -30,
      "longitude" : -71
    },
{
      "key" : "China",
      "name" : "China",
      "latitude" : 35,
      "longitude" : 105
    },
{
      "key" : "Christmas Island",
      "name" : "Christmas Island",
      "latitude" : -10.5,
      "longitude" : 105.6667
    },
{
      "key" : "Cocos (Keeling) Islands",
      "name" : "Cocos (Keeling) Islands",
      "latitude" : -12.5,
      "longitude" : 96.8333
    },
{
      "key" : "Colombia",
      "name" : "Colombia",
      "latitude" : 4,
      "longitude" : -72
    },
{
      "key" : "Comoros",
      "name" : "Comoros",
      "latitude" : -12.1667,
      "longitude" : 44.25
    },
{
      "key" : "Congo",
      "name" : "Congo",
      "latitude" : -1,
      "longitude" : 15
    },
{
      "key" : "Congo, the Democratic Republic of the",
      "name" : "Congo, the Democratic Republic of the",
      "latitude" : 0,
      "longitude" : 25
    },
{
      "key" : "Cook Islands",
      "name" : "Cook Islands",
      "latitude" : -21.2333,
      "longitude" : -159.7667
    },
{
      "key" : "Costa Rica",
      "name" : "Costa Rica",
      "latitude" : 10,
      "longitude" : -84
    },
{
      "key" : "Côte d'Ivoire",
      "name" : "Côte d'Ivoire",
      "latitude" : 8,
      "longitude" : -5
    },
{
      "key" : "Croatia",
      "name" : "Croatia",
      "latitude" : 45.1667,
      "longitude" : 15.5
    },
{
      "key" : "Cuba",
      "name" : "Cuba",
      "latitude" : 21.5,
      "longitude" : -80
    },
{
      "key" : "Cyprus",
      "name" : "Cyprus",
      "latitude" : 35,
      "longitude" : 33
    },
{
      "key" : "Czech Republic",
      "name" : "Czech Republic",
      "latitude" : 49.75,
      "longitude" : 15.5
    },
{
      "key" : "Denmark",
      "name" : "Denmark",
      "latitude" : 56,
      "longitude" : 10
    },
{
      "key" : "Djibouti",
      "name" : "Djibouti",
      "latitude" : 11.5,
      "longitude" : 43
    },
{
      "key" : "Dominica",
      "name" : "Dominica",
      "latitude" : 15.4167,
      "longitude" : -61.3333
    },
{
      "key" : "Dominican Republic",
      "name" : "Dominican Republic",
      "latitude" : 19,
      "longitude" : -70.6667
    },
{
      "key" : "Ecuador",
      "name" : "Ecuador",
      "latitude" : -2,
      "longitude" : -77.5
    },
{
      "key" : "Egypt",
      "name" : "Egypt",
      "latitude" : 27,
      "longitude" : 30
    },
{
      "key" : "El Salvador",
      "name" : "El Salvador",
      "latitude" : 13.8333,
      "longitude" : -88.9167
    },
{
      "key" : "Equatorial Guinea",
      "name" : "Equatorial Guinea",
      "latitude" : 2,
      "longitude" : 10
    },
{
      "key" : "Eritrea",
      "name" : "Eritrea",
      "latitude" : 15,
      "longitude" : 39
    },
{
      "key" : "Estonia",
      "name" : "Estonia",
      "latitude" : 59,
      "longitude" : 26
    },
{
      "key" : "Ethiopia",
      "name" : "Ethiopia",
      "latitude" : 8,
      "longitude" : 38
    },
{
      "key" : "Falkland Islands (Malvinas)",
      "name" : "Falkland Islands (Malvinas)",
      "latitude" : -51.75,
      "longitude" : -59
    },
{
      "key" : "Faroe Islands",
      "name" : "Faroe Islands",
      "latitude" : 62,
      "longitude" : -7
    },
{
      "key" : "Fiji",
      "name" : "Fiji",
      "latitude" : -18,
      "longitude" : 175
    },
{
      "key" : "Finland",
      "name" : "Finland",
      "latitude" : 64,
      "longitude" : 26
    },
{
      "key" : "France",
      "name" : "France",
      "latitude" : 46,
      "longitude" : 2
    },
{
      "key" : "French Guiana",
      "name" : "French Guiana",
      "latitude" : 4,
      "longitude" : -53
    },
{
      "key" : "French Polynesia",
      "name" : "French Polynesia",
      "latitude" : -15,
      "longitude" : -140
    },
{
      "key" : "French Southern Territories",
      "name" : "French Southern Territories",
      "latitude" : -43,
      "longitude" : 67
    },
{
      "key" : "Gabon",
      "name" : "Gabon",
      "latitude" : -1,
      "longitude" : 11.75
    },
{
      "key" : "Gambia",
      "name" : "Gambia",
      "latitude" : 13.4667,
      "longitude" : -16.5667
    },
{
      "key" : "Georgia",
      "name" : "Georgia",
      "latitude" : 42,
      "longitude" : 43.5
    },
{
      "key" : "Germany",
      "name" : "Germany",
      "latitude" : 51,
      "longitude" : 9
    },
{
      "key" : "Ghana",
      "name" : "Ghana",
      "latitude" : 8,
      "longitude" : -2
    },
{
      "key" : "Gibraltar",
      "name" : "Gibraltar",
      "latitude" : 36.1833,
      "longitude" : -5.3667
    },
{
      "key" : "Greece",
      "name" : "Greece",
      "latitude" : 39,
      "longitude" : 22
    },
{
      "key" : "Greenland",
      "name" : "Greenland",
      "latitude" : 72,
      "longitude" : -40
    },
{
      "key" : "Grenada",
      "name" : "Grenada",
      "latitude" : 12.1167,
      "longitude" : -61.6667
    },
{
      "key" : "Guadeloupe",
      "name" : "Guadeloupe",
      "latitude" : 16.25,
      "longitude" : -61.5833
    },
{
      "key" : "Guam",
      "name" : "Guam",
      "latitude" : 13.4667,
      "longitude" : 144.7833
    },
{
      "key" : "Guatemala",
      "name" : "Guatemala",
      "latitude" : 15.5,
      "longitude" : -90.25
    },
{
      "key" : "Guernsey",
      "name" : "Guernsey",
      "latitude" : 49.5,
      "longitude" : -2.56
    },
{
      "key" : "Guinea",
      "name" : "Guinea",
      "latitude" : 11,
      "longitude" : -10
    },
{
      "key" : "Guinea-Bissau",
      "name" : "Guinea-Bissau",
      "latitude" : 12,
      "longitude" : -15
    },
{
      "key" : "Guyana",
      "name" : "Guyana",
      "latitude" : 5,
      "longitude" : -59
    },
{
      "key" : "Haiti",
      "name" : "Haiti",
      "latitude" : 19,
      "longitude" : -72.4167
    },
{
      "key" : "Heard Island and McDonald Islands",
      "name" : "Heard Island and McDonald Islands",
      "latitude" : -53.1,
      "longitude" : 72.5167
    },
{
      "key" : "Holy See (Vatican City State)",
      "name" : "Holy See (Vatican City State)",
      "latitude" : 41.9,
      "longitude" : 12.45
    },
{
      "key" : "Honduras",
      "name" : "Honduras",
      "latitude" : 15,
      "longitude" : -86.5
    },
{
      "key" : "Hong Kong",
      "name" : "Hong Kong",
      "latitude" : 22.25,
      "longitude" : 114.1667
    },
{
      "key" : "Hungary",
      "name" : "Hungary",
      "latitude" : 47,
      "longitude" : 20
    },
{
      "key" : "Iceland",
      "name" : "Iceland",
      "latitude" : 65,
      "longitude" : -18
    },
{
      "key" : "India",
      "name" : "India",
      "latitude" : 20,
      "longitude" : 77
    },
{
      "key" : "Indonesia",
      "name" : "Indonesia",
      "latitude" : -5,
      "longitude" : 120
    },
{
      "key" : "Iran, Islamic Republic of",
      "name" : "Iran, Islamic Republic of",
      "latitude" : 32,
      "longitude" : 53
    },
{
      "key" : "Iraq",
      "name" : "Iraq",
      "latitude" : 33,
      "longitude" : 44
    },
{
      "key" : "Ireland",
      "name" : "Ireland",
      "latitude" : 53,
      "longitude" : -8
    },
{
      "key" : "Isle of Man",
      "name" : "Isle of Man",
      "latitude" : 54.23,
      "longitude" : -4.55
    },
{
      "key" : "Israel",
      "name" : "Israel",
      "latitude" : 31.5,
      "longitude" : 34.75
    },
{
      "key" : "Italy",
      "name" : "Italy",
      "latitude" : 42.8333,
      "longitude" : 12.8333
    },
{
      "key" : "Jamaica",
      "name" : "Jamaica",
      "latitude" : 18.25,
      "longitude" : -77.5
    },
{
      "key" : "Japan",
      "name" : "Japan",
      "latitude" : 36,
      "longitude" : 138
    },
{
      "key" : "Jersey",
      "name" : "Jersey",
      "latitude" : 49.21,
      "longitude" : -2.13
    },
{
      "key" : "Jordan",
      "name" : "Jordan",
      "latitude" : 31,
      "longitude" : 36
    },
{
      "key" : "Kazakhstan",
      "name" : "Kazakhstan",
      "latitude" : 48,
      "longitude" : 68
    },
{
      "key" : "Kenya",
      "name" : "Kenya",
      "latitude" : 1,
      "longitude" : 38
    },
{
      "key" : "Kiribati",
      "name" : "Kiribati",
      "latitude" : 1.4167,
      "longitude" : 173
    },
{
      "key" : "Korea, Democratic People's Republic of",
      "name" : "Korea, Democratic People's Republic of",
      "latitude" : 40,
      "longitude" : 127
    },
{
      "key" : "Korea, Republic of",
      "name" : "Korea, Republic of",
      "latitude" : 37,
      "longitude" : 127.5
    },
{
      "key" : "Kuwait",
      "name" : "Kuwait",
      "latitude" : 29.3375,
      "longitude" : 47.6581
    },
{
      "key" : "Kyrgyzstan",
      "name" : "Kyrgyzstan",
      "latitude" : 41,
      "longitude" : 75
    },
{
      "key" : "Lao People's Democratic Republic",
      "name" : "Lao People's Democratic Republic",
      "latitude" : 18,
      "longitude" : 105
    },
{
      "key" : "Latvia",
      "name" : "Latvia",
      "latitude" : 57,
      "longitude" : 25
    },
{
      "key" : "Lebanon",
      "name" : "Lebanon",
      "latitude" : 33.8333,
      "longitude" : 35.8333
    },
{
      "key" : "Lesotho",
      "name" : "Lesotho",
      "latitude" : -29.5,
      "longitude" : 28.5
    },
{
      "key" : "Liberia",
      "name" : "Liberia",
      "latitude" : 6.5,
      "longitude" : -9.5
    },
{
      "key" : "Libyan Arab Jamahiriya",
      "name" : "Libyan Arab Jamahiriya",
      "latitude" : 25,
      "longitude" : 17
    },
{
      "key" : "Liechtenstein",
      "name" : "Liechtenstein",
      "latitude" : 47.1667,
      "longitude" : 9.5333
    },
{
      "key" : "Lithuania",
      "name" : "Lithuania",
      "latitude" : 56,
      "longitude" : 24
    },
{
      "key" : "Luxembourg",
      "name" : "Luxembourg",
      "latitude" : 49.75,
      "longitude" : 6.1667
    },
{
      "key" : "Macao",
      "name" : "Macao",
      "latitude" : 22.1667,
      "longitude" : 113.55
    },
{
      "key" : "Macedonia, the former Yugoslav Republic of",
      "name" : "Macedonia, the former Yugoslav Republic of",
      "latitude" : 41.8333,
      "longitude" : 22
    },
{
      "key" : "Madagascar",
      "name" : "Madagascar",
      "latitude" : -20,
      "longitude" : 47
    },
{
      "key" : "Malawi",
      "name" : "Malawi",
      "latitude" : -13.5,
      "longitude" : 34
    },
{
      "key" : "Malaysia",
      "name" : "Malaysia",
      "latitude" : 2.5,
      "longitude" : 112.5
    },
{
      "key" : "Maldives",
      "name" : "Maldives",
      "latitude" : 3.25,
      "longitude" : 73
    },
{
      "key" : "Mali",
      "name" : "Mali",
      "latitude" : 17,
      "longitude" : -4
    },
{
      "key" : "Malta",
      "name" : "Malta",
      "latitude" : 35.8333,
      "longitude" : 14.5833
    },
{
      "key" : "Marshall Islands",
      "name" : "Marshall Islands",
      "latitude" : 9,
      "longitude" : 168
    },
{
      "key" : "Martinique",
      "name" : "Martinique",
      "latitude" : 14.6667,
      "longitude" : -61
    },
{
      "key" : "Mauritania",
      "name" : "Mauritania",
      "latitude" : 20,
      "longitude" : -12
    },
{
      "key" : "Mauritius",
      "name" : "Mauritius",
      "latitude" : -20.2833,
      "longitude" : 57.55
    },
{
      "key" : "Mayotte",
      "name" : "Mayotte",
      "latitude" : -12.8333,
      "longitude" : 45.1667
    },
{
      "key" : "Mexico",
      "name" : "Mexico",
      "latitude" : 23,
      "longitude" : -102
    },
{
      "key" : "Micronesia, Federated States of",
      "name" : "Micronesia, Federated States of",
      "latitude" : 6.9167,
      "longitude" : 158.25
    },
{
      "key" : "Moldova, Republic of",
      "name" : "Moldova, Republic of",
      "latitude" : 47,
      "longitude" : 29
    },
{
      "key" : "Monaco",
      "name" : "Monaco",
      "latitude" : 43.7333,
      "longitude" : 7.4
    },
{
      "key" : "Mongolia",
      "name" : "Mongolia",
      "latitude" : 46,
      "longitude" : 105
    },
{
      "key" : "Montenegro",
      "name" : "Montenegro",
      "latitude" : 42,
      "longitude" : 19
    },
{
      "key" : "Montserrat",
      "name" : "Montserrat",
      "latitude" : 16.75,
      "longitude" : -62.2
    },
{
      "key" : "Morocco",
      "name" : "Morocco",
      "latitude" : 32,
      "longitude" : -5
    },
{
      "key" : "Mozambique",
      "name" : "Mozambique",
      "latitude" : -18.25,
      "longitude" : 35
    },
{
      "key" : "Myanmar",
      "name" : "Myanmar",
      "latitude" : 22,
      "longitude" : 98
    },
{
      "key" : "Namibia",
      "name" : "Namibia",
      "latitude" : -22,
      "longitude" : 17
    },
{
      "key" : "Nauru",
      "name" : "Nauru",
      "latitude" : -0.5333,
      "longitude" : 166.9167
    },
{
      "key" : "Nepal",
      "name" : "Nepal",
      "latitude" : 28,
      "longitude" : 84
    },
{
      "key" : "Netherlands",
      "name" : "Netherlands",
      "latitude" : 52.5,
      "longitude" : 5.75
    },
{
      "key" : "Netherlands Antilles",
      "name" : "Netherlands Antilles",
      "latitude" : 12.25,
      "longitude" : -68.75
    },
{
      "key" : "New Caledonia",
      "name" : "New Caledonia",
      "latitude" : -21.5,
      "longitude" : 165.5
    },
{
      "key" : "New Zealand",
      "name" : "New Zealand",
      "latitude" : -41,
      "longitude" : 174
    },
{
      "key" : "Nicaragua",
      "name" : "Nicaragua",
      "latitude" : 13,
      "longitude" : -85
    },
{
      "key" : "Niger",
      "name" : "Niger",
      "latitude" : 16,
      "longitude" : 8
    },
{
      "key" : "Nigeria",
      "name" : "Nigeria",
      "latitude" : 10,
      "longitude" : 8
    },
{
      "key" : "Niue",
      "name" : "Niue",
      "latitude" : -19.0333,
      "longitude" : -169.8667
    },
{
      "key" : "Norfolk Island",
      "name" : "Norfolk Island",
      "latitude" : -29.0333,
      "longitude" : 167.95
    },
{
      "key" : "Northern Mariana Islands",
      "name" : "Northern Mariana Islands",
      "latitude" : 15.2,
      "longitude" : 145.75
    },
{
      "key" : "Norway",
      "name" : "Norway",
      "latitude" : 62,
      "longitude" : 10
    },
{
      "key" : "Oman",
      "name" : "Oman",
      "latitude" : 21,
      "longitude" : 57
    },
{
      "key" : "Pakistan",
      "name" : "Pakistan",
      "latitude" : 30,
      "longitude" : 70
    },
{
      "key" : "Palau",
      "name" : "Palau",
      "latitude" : 7.5,
      "longitude" : 134.5
    },
{
      "key" : "Palestinian Territory, Occupied",
      "name" : "Palestinian Territory, Occupied",
      "latitude" : 32,
      "longitude" : 35.25
    },
{
      "key" : "Panama",
      "name" : "Panama",
      "latitude" : 9,
      "longitude" : -80
    },
{
      "key" : "Papua New Guinea",
      "name" : "Papua New Guinea",
      "latitude" : -6,
      "longitude" : 147
    },
{
      "key" : "Paraguay",
      "name" : "Paraguay",
      "latitude" : -23,
      "longitude" : -58
    },
{
      "key" : "Peru",
      "name" : "Peru",
      "latitude" : -10,
      "longitude" : -76
    },
{
      "key" : "Philippines",
      "name" : "Philippines",
      "latitude" : 13,
      "longitude" : 122
    },
{
      "key" : "Pitcairn",
      "name" : "Pitcairn",
      "latitude" : -24.7,
      "longitude" : -127.4
    },
{
      "key" : "Poland",
      "name" : "Poland",
      "latitude" : 52,
      "longitude" : 20
    },
{
      "key" : "Portugal",
      "name" : "Portugal",
      "latitude" : 39.5,
      "longitude" : -8
    },
{
      "key" : "Puerto Rico",
      "name" : "Puerto Rico",
      "latitude" : 18.25,
      "longitude" : -66.5
    },
{
      "key" : "Qatar",
      "name" : "Qatar",
      "latitude" : 25.5,
      "longitude" : 51.25
    },
{
      "key" : "Réunion",
      "name" : "Réunion",
      "latitude" : -21.1,
      "longitude" : 55.6
    },
{
      "key" : "Romania",
      "name" : "Romania",
      "latitude" : 46,
      "longitude" : 25
    },
{
      "key" : "Russian Federation",
      "name" : "Russian Federation",
      "latitude" : 60,
      "longitude" : 100
    },
{
      "key" : "Rwanda",
      "name" : "Rwanda",
      "latitude" : -2,
      "longitude" : 30
    },
{
      "key" : "Saint Helena, Ascension and Tristan da Cunha",
      "name" : "Saint Helena, Ascension and Tristan da Cunha",
      "latitude" : -15.9333,
      "longitude" : -5.7
    },
{
      "key" : "Saint Kitts and Nevis",
      "name" : "Saint Kitts and Nevis",
      "latitude" : 17.3333,
      "longitude" : -62.75
    },
{
      "key" : "Saint Lucia",
      "name" : "Saint Lucia",
      "latitude" : 13.8833,
      "longitude" : -61.1333
    },
{
      "key" : "Saint Pierre and Miquelon",
      "name" : "Saint Pierre and Miquelon",
      "latitude" : 46.8333,
      "longitude" : -56.3333
    },
{
      "key" : "Saint Vincent and the Grenadines",
      "name" : "Saint Vincent and the Grenadines",
      "latitude" : 13.25,
      "longitude" : -61.2
    },
{
      "key" : "Samoa",
      "name" : "Samoa",
      "latitude" : -13.5833,
      "longitude" : -172.3333
    },
{
      "key" : "San Marino",
      "name" : "San Marino",
      "latitude" : 43.7667,
      "longitude" : 12.4167
    },
{
      "key" : "Sao Tome and Principe",
      "name" : "Sao Tome and Principe",
      "latitude" : 1,
      "longitude" : 7
    },
{
      "key" : "Saudi Arabia",
      "name" : "Saudi Arabia",
      "latitude" : 25,
      "longitude" : 45
    },
{
      "key" : "Senegal",
      "name" : "Senegal",
      "latitude" : 14,
      "longitude" : -14
    },
{
      "key" : "Serbia",
      "name" : "Serbia",
      "latitude" : 44,
      "longitude" : 21
    },
{
      "key" : "Seychelles",
      "name" : "Seychelles",
      "latitude" : -4.5833,
      "longitude" : 55.6667
    },
{
      "key" : "Sierra Leone",
      "name" : "Sierra Leone",
      "latitude" : 8.5,
      "longitude" : -11.5
    },
{
      "key" : "Singapore",
      "name" : "Singapore",
      "latitude" : 1.3667,
      "longitude" : 103.8
    },
{
      "key" : "Slovakia",
      "name" : "Slovakia",
      "latitude" : 48.6667,
      "longitude" : 19.5
    },
{
      "key" : "Slovenia",
      "name" : "Slovenia",
      "latitude" : 46,
      "longitude" : 15
    },
{
      "key" : "Solomon Islands",
      "name" : "Solomon Islands",
      "latitude" : -8,
      "longitude" : 159
    },
{
      "key" : "Somalia",
      "name" : "Somalia",
      "latitude" : 10,
      "longitude" : 49
    },
{
      "key" : "South Africa",
      "name" : "South Africa",
      "latitude" : -29,
      "longitude" : 24
    },
{
      "key" : "South Georgia and the South Sandwich Islands",
      "name" : "South Georgia and the South Sandwich Islands",
      "latitude" : -54.5,
      "longitude" : -37
    },
{
      "key" : "Spain",
      "name" : "Spain",
      "latitude" : 40,
      "longitude" : -4
    },
{
      "key" : "Sri Lanka",
      "name" : "Sri Lanka",
      "latitude" : 7,
      "longitude" : 81
    },
{
      "key" : "Sudan",
      "name" : "Sudan",
      "latitude" : 15,
      "longitude" : 30
    },
{
      "key" : "Suriname",
      "name" : "Suriname",
      "latitude" : 4,
      "longitude" : -56
    },
{
      "key" : "Svalbard and Jan Mayen",
      "name" : "Svalbard and Jan Mayen",
      "latitude" : 78,
      "longitude" : 20
    },
{
      "key" : "Swaziland",
      "name" : "Swaziland",
      "latitude" : -26.5,
      "longitude" : 31.5
    },
{
      "key" : "Sweden",
      "name" : "Sweden",
      "latitude" : 62,
      "longitude" : 15
    },
{
      "key" : "Switzerland",
      "name" : "Switzerland",
      "latitude" : 47,
      "longitude" : 8
    },
{
      "key" : "Syrian Arab Republic",
      "name" : "Syrian Arab Republic",
      "latitude" : 35,
      "longitude" : 38
    },
{
      "key" : "Taiwan, Province of China",
      "name" : "Taiwan, Province of China",
      "latitude" : 23.5,
      "longitude" : 121
    },
{
      "key" : "Tajikistan",
      "name" : "Tajikistan",
      "latitude" : 39,
      "longitude" : 71
    },
{
      "key" : "Tanzania, United Republic of",
      "name" : "Tanzania, United Republic of",
      "latitude" : -6,
      "longitude" : 35
    },
{
      "key" : "Thailand",
      "name" : "Thailand",
      "latitude" : 15,
      "longitude" : 100
    },
{
      "key" : "Timor-Leste",
      "name" : "Timor-Leste",
      "latitude" : -8.55,
      "longitude" : 125.5167
    },
{
      "key" : "Togo",
      "name" : "Togo",
      "latitude" : 8,
      "longitude" : 1.1667
    },
{
      "key" : "Tokelau",
      "name" : "Tokelau",
      "latitude" : -9,
      "longitude" : -172
    },
{
      "key" : "Tonga",
      "name" : "Tonga",
      "latitude" : -20,
      "longitude" : -175
    },
{
      "key" : "Trinidad and Tobago",
      "name" : "Trinidad and Tobago",
      "latitude" : 11,
      "longitude" : -61
    },
{
      "key" : "Tunisia",
      "name" : "Tunisia",
      "latitude" : 34,
      "longitude" : 9
    },
{
      "key" : "Turkey",
      "name" : "Turkey",
      "latitude" : 39,
      "longitude" : 35
    },
{
      "key" : "Turkmenistan",
      "name" : "Turkmenistan",
      "latitude" : 40,
      "longitude" : 60
    },
{
      "key" : "Turks and Caicos Islands",
      "name" : "Turks and Caicos Islands",
      "latitude" : 21.75,
      "longitude" : -71.5833
    },
{
      "key" : "Tuvalu",
      "name" : "Tuvalu",
      "latitude" : -8,
      "longitude" : 178
    },
{
      "key" : "Uganda",
      "name" : "Uganda",
      "latitude" : 1,
      "longitude" : 32
    },
{
      "key" : "Ukraine",
      "name" : "Ukraine",
      "latitude" : 49,
      "longitude" : 32
    },
{
      "key" : "United Arab Emirates",
      "name" : "United Arab Emirates",
      "latitude" : 24,
      "longitude" : 54
    },
{
      "key" : "United Kingdom",
      "name" : "United Kingdom",
      "latitude" : 54,
      "longitude" : -2
    },
{
      "key" : "United States",
      "name" : "United States",
      "latitude" : 38,
      "longitude" : -97
    },
{
      "key" : "United States Minor Outlying Islands",
      "name" : "United States Minor Outlying Islands",
      "latitude" : 19.2833,
      "longitude" : 166.6
    },
{
      "key" : "Uruguay",
      "name" : "Uruguay",
      "latitude" : -33,
      "longitude" : -56
    },
{
      "key" : "Uzbekistan",
      "name" : "Uzbekistan",
      "latitude" : 41,
      "longitude" : 64
    },
{
      "key" : "Vanuatu",
      "name" : "Vanuatu",
      "latitude" : -16,
      "longitude" : 167
    },
{
      "key" : "Venezuela, Bolivarian Republic of",
      "name" : "Venezuela, Bolivarian Republic of",
      "latitude" : 8,
      "longitude" : -66
    },
{
      "key" : "Viet Nam",
      "name" : "Viet Nam",
      "latitude" : 16,
      "longitude" : 106
    },
{
      "key" : "Virgin Islands, British",
      "name" : "Virgin Islands, British",
      "latitude" : 18.5,
      "longitude" : -64.5
    },
{
      "key" : "Virgin Islands, U.S.",
      "name" : "Virgin Islands, U.S.",
      "latitude" : 18.3333,
      "longitude" : -64.8333
    },
{
      "key" : "Wallis and Futuna",
      "name" : "Wallis and Futuna",
      "latitude" : -13.3,
      "longitude" : -176.2
    },
{
      "key" : "Western Sahara",
      "name" : "Western Sahara",
      "latitude" : 24.5,
      "longitude" : -13
    },
{
      "key" : "Yemen",
      "name" : "Yemen",
      "latitude" : 15,
      "longitude" : 48
    },
{
      "key" : "Zambia",
      "name" : "Zambia",
      "latitude" : -15,
      "longitude" : 30
    },
{
      "key" : "Zimbabwe",
      "name" : "Zimbabwe",
      "latitude" : -20,
      "longitude" : 30
    },
{
      "key" : "Afghanistan",
      "name" : "Afghanistan",
      "latitude" : 33,
      "longitude" : 65
    }
]